{
  "cities": [
    {
      "cityName": "Lisbon",
      "country": "Portugal",
      "emoji": "ðŸ‡µðŸ‡¹",
      "date": "2027-10-31T15:59:59.138Z",
      "notes": "My favorite city so far!",
      "position": {
        "lat": 38.727881642324164,
        "lng": -9.140900099907554
      },
      "id": 73930385
    },
    {
      "cityName": "Madrid",
      "country": "Spain",
      "emoji": "ðŸ‡ªðŸ‡¸",
      "date": "2027-07-15T08:22:53.976Z",
      "notes": "",
      "position": {
        "lat": 40.46635901755316,
        "lng": -3.7133789062500004
      },
      "id": 17806751
    },
    {
      "cityName": "Berlin",
      "country": "Germany",
      "emoji": "ðŸ‡©ðŸ‡ª",
      "date": "2027-02-12T09:24:11.863Z",
      "notes": "Amazing ðŸ˜ƒ",
      "position": {
        "lat": 52.53586782505711,
        "lng": 13.376933665713324
      },
      "id": 98443197
    },
    {
      "cityName": "Manzanal de Arriba",
      "country": "Spain",
      "emoji": "ðŸ‡ªðŸ‡¸",
      "date": "2023-09-14T07:49:04.344Z",
      "notes": "eren",
      "position": {
        "lat": "41.95131994679697",
        "lng": "-6.416015625000001"
      },
      "id": 98443198
    },
    {
      "cityName": "Istanbul",
      "country": "Turkiye",
      "emoji": "ðŸ‡¹ðŸ‡·",
      "date": "2023-09-14T07:50:37.085Z",
      "notes": "That's a beautiful city.",
      "position": {
        "lat": "41.11246878918088",
        "lng": "29.091796875"
      },
      "id": 98443199
    },
    {
      "cityName": "Ortakoy",
      "country": "Turkiye",
      "emoji": "ðŸ‡¹ðŸ‡·",
      "date": "2023-09-14T07:52:30.526Z",
      "notes": "I didn't like there.",
      "position": {
        "lat": "38.75408327579141",
        "lng": "34.18945312500001"
      },
      "id": 98443200
    },
    {
      "cityName": "Lillehammer",
      "country": "Norway",
      "emoji": "ðŸ‡³ðŸ‡´",
      "date": "2023-09-14T07:53:40.041Z",
      "notes": "Cold",
      "position": {
        "lat": "61.10078883158897",
        "lng": "10.195312500000002"
      },
      "id": 98443201
    }
  ]
}